transforms:
- header:
    stamp:
      sec: 1748397615
      nanosec: 851311480
    frame_id: map
  child_frame_id: odom
  transform:
    translation:
      x: 0.017790903091778526
      y: -0.31672203003112265
      z: 0.0
    rotation:
      x: -0.0
      y: -0.0
      z: 0.12877143482094927
      w: 0.9916743001480647
---
transforms:
- header:
    stamp:
      sec: 1748397615
      nanosec: 836828823
    frame_id: base_link
  child_frame_id: wheel_left_link
  transform:
    translation:
      x: 0.0
      y: 0.147
      z: 0.0
    rotation:
      x: 0.0
      y: 0.9571968061484625
      z: 0.0
      w: 0.2894378591324616
- header:
    stamp:
      sec: 1748397615
      nanosec: 836828823
    frame_id: base_link
  child_frame_id: wheel_right_link
  transform:
    translation:
      x: 0.0
      y: -0.147
      z: 0.0
    rotation:
      x: 0.0
      y: -0.009617286146654877
      z: 0.0
      w: 0.9999537528341866
---
transforms:
- header:
    stamp:
      sec: 1748397615
      nanosec: 867583689
    frame_id: odom
  child_frame_id: base_link
  transform:
    translation:
      x: -0.35294406541956974
      y: 0.25071209229484537
      z: 0.0
    rotation:
      x: -0.0
      y: 0.0
      z: 0.20420333900880192
      w: -0.9789284939859787
---
transforms:
- header:
    stamp:
      sec: 1748397615
      nanosec: 851311480
    frame_id: map
  child_frame_id: odom
  transform:
    translation:
      x: 0.017790903091778526
      y: -0.31672203003112265
      z: 0.0
    rotation:
      x: -0.0
      y: -0.0
      z: 0.12877143482094927
      w: 0.9916743001480647
---
transforms:
- header:
    stamp:
      sec: 1748397615
      nanosec: 851311480
    frame_id: map
  child_frame_id: odom
  transform:
    translation:
      x: 0.017790903091778526
      y: -0.31672203003112265
      z: 0.0
    rotation:
      x: -0.0
      y: -0.0
      z: 0.12877143482094927
      w: 0.9916743001480647
---
transforms:
- header:
    stamp:
      sec: 1748397615
      nanosec: 908076097
    frame_id: odom
  child_frame_id: base_link
  transform:
    translation:
      x: -0.35294406541956974
      y: 0.25071209229484537
      z: 0.0
    rotation:
      x: -0.0
      y: 0.0
      z: 0.20420333900880192
      w: -0.9789284939859787
---
transforms:
- header:
    stamp:
      sec: 1748397615
      nanosec: 908044596
    frame_id: base_link
  child_frame_id: wheel_left_link
  transform:
    translation:
      x: 0.0
      y: 0.147
      z: 0.0
    rotation:
      x: 0.0
      y: 0.9571968061484625
      z: 0.0
      w: 0.2894378591324616
- header:
    stamp:
      sec: 1748397615
      nanosec: 908044596
    frame_id: base_link
  child_frame_id: wheel_right_link
  transform:
    translation:
      x: 0.0
      y: -0.147
      z: 0.0
    rotation:
      x: 0.0
      y: -0.009617286146654877
      z: 0.0
      w: 0.9999537528341866
---
transforms:
- header:
    stamp:
      sec: 1748397615
      nanosec: 851311480
    frame_id: map
  child_frame_id: odom
  transform:
    translation:
      x: 0.017790903091778526
      y: -0.31672203003112265
      z: 0.0
    rotation:
      x: -0.0
      y: -0.0
      z: 0.12877143482094927
      w: 0.9916743001480647
---
transforms:
- header:
    stamp:
      sec: 1748397615
      nanosec: 920693350
    frame_id: odom
  child_frame_id: base_link
  transform:
    translation:
      x: -0.35294406541956974
      y: 0.25071209229484537
      z: 0.0
    rotation:
      x: -0.0
      y: 0.0
      z: 0.20420333900880192
      w: -0.9789284939859787
---
transforms:
- header:
    stamp:
      sec: 1748397615
      nanosec: 981375093
    frame_id: map
  child_frame_id: odom
  transform:
    translation:
      x: 0.017790903091778526
      y: -0.31672203003112265
      z: 0.0
    rotation:
      x: -0.0
      y: -0.0
      z: 0.12877143482094927
      w: 0.9916743001480647
---
transforms:
- header:
    stamp:
      sec: 1748397615
      nanosec: 937086147
    frame_id: odom
  child_frame_id: base_link
  transform:
    translation:
      x: -0.35294406541956974
      y: 0.25071209229484537
      z: 0.0
    rotation:
      x: -0.0
      y: 0.0
      z: 0.20420333900880192
      w: -0.9789284939859787
---
transforms:
- header:
    stamp:
      sec: 1748397615
      nanosec: 981375093
    frame_id: map
  child_frame_id: odom
  transform:
    translation:
      x: 0.017790903091778526
      y: -0.31672203003112265
      z: 0.0
    rotation:
      x: -0.0
      y: -0.0
      z: 0.12877143482094927
      w: 0.9916743001480647
---
transforms:
- header:
    stamp:
      sec: 1748397615
      nanosec: 970159081
    frame_id: odom
  child_frame_id: base_link
  transform:
    translation:
      x: -0.35294406541956974
      y: 0.25071209229484537
      z: 0.0
    rotation:
      x: -0.0
      y: 0.0
      z: 0.20420333900880192
      w: -0.9789284939859787
---
transforms:
- header:
    stamp:
      sec: 1748397615
      nanosec: 970133228
    frame_id: base_link
  child_frame_id: wheel_left_link
  transform:
    translation:
      x: 0.0
      y: 0.147
      z: 0.0
    rotation:
      x: 0.0
      y: 0.9571968061484625
      z: 0.0
      w: 0.2894378591324616
- header:
    stamp:
      sec: 1748397615
      nanosec: 970133228
    frame_id: base_link
  child_frame_id: wheel_right_link
  transform:
    translation:
      x: 0.0
      y: -0.147
      z: 0.0
    rotation:
      x: 0.0
      y: -0.009617286146654877
      z: 0.0
      w: 0.9999537528341866
---
transforms:
- header:
    stamp:
      sec: 1748397615
      nanosec: 981375093
    frame_id: map
  child_frame_id: odom
  transform:
    translation:
      x: 0.017790903091778526
      y: -0.31672203003112265
      z: 0.0
    rotation:
      x: -0.0
      y: -0.0
      z: 0.12877143482094927
      w: 0.9916743001480647
---
transforms:
- header:
    stamp:
      sec: 1748397615
      nanosec: 985688822
    frame_id: odom
  child_frame_id: base_link
  transform:
    translation:
      x: -0.35294406541956974
      y: 0.25071209229484537
      z: 0.0
    rotation:
      x: -0.0
      y: 0.0
      z: 0.20420333900880192
      w: -0.9789284939859787
---
transforms:
- header:
    stamp:
      sec: 1748397615
      nanosec: 981375093
    frame_id: map
  child_frame_id: odom
  transform:
    translation:
      x: 0.017790903091778526
      y: -0.31672203003112265
      z: 0.0
    rotation:
      x: -0.0
      y: -0.0
      z: 0.12877143482094927
      w: 0.9916743001480647
---
transforms:
- header:
    stamp:
      sec: 1748397616
      nanosec: 5423543
    frame_id: odom
  child_frame_id: base_link
  transform:
    translation:
      x: -0.35294406541956974
      y: 0.25071209229484537
      z: 0.0
    rotation:
      x: -0.0
      y: 0.0
      z: 0.20420333900880192
      w: -0.9789284939859787
---
transforms:
- header:
    stamp:
      sec: 1748397615
      nanosec: 981375093
    frame_id: map
  child_frame_id: odom
  transform:
    translation:
      x: 0.017790903091778526
      y: -0.31672203003112265
      z: 0.0
    rotation:
      x: -0.0
      y: -0.0
      z: 0.12877143482094927
      w: 0.9916743001480647
---
transforms:
- header:
    stamp:
      sec: 1748397616
      nanosec: 25624978
    frame_id: odom
  child_frame_id: base_link
  transform:
    translation:
      x: -0.35294406541956974
      y: 0.25071209229484537
      z: 0.0
    rotation:
      x: -0.0
      y: 0.0
      z: 0.20420333900880192
      w: -0.9789284939859787
---
transforms:
- header:
    stamp:
      sec: 1748397616
      nanosec: 25571773
    frame_id: base_link
  child_frame_id: wheel_left_link
  transform:
    translation:
      x: 0.0
      y: 0.147
      z: 0.0
    rotation:
      x: 0.0
      y: 0.9571968061484625
      z: 0.0
      w: 0.2894378591324616
- header:
    stamp:
      sec: 1748397616
      nanosec: 25571773
    frame_id: base_link
  child_frame_id: wheel_right_link
  transform:
    translation:
      x: 0.0
      y: -0.147
      z: 0.0
    rotation:
      x: 0.0
      y: -0.009617286146654877
      z: 0.0
      w: 0.9999537528341866
---
transforms:
- header:
    stamp:
      sec: 1748397615
      nanosec: 981375093
    frame_id: map
  child_frame_id: odom
  transform:
    translation:
      x: 0.017790903091778526
      y: -0.31672203003112265
      z: 0.0
    rotation:
      x: -0.0
      y: -0.0
      z: 0.12877143482094927
      w: 0.9916743001480647
---
transforms:
- header:
    stamp:
      sec: 1748397616
      nanosec: 36387617
    frame_id: odom
  child_frame_id: base_link
  transform:
    translation:
      x: -0.35294406541956974
      y: 0.25071209229484537
      z: 0.0
    rotation:
      x: -0.0
      y: 0.0
      z: 0.20420333900880192
      w: -0.9789284939859787
---
transforms:
- header:
    stamp:
      sec: 1748397616
      nanosec: 126079743
    frame_id: map
  child_frame_id: odom
  transform:
    translation:
      x: 0.017790903091778526
      y: -0.31672203003112265
      z: 0.0
    rotation:
      x: -0.0
      y: -0.0
      z: 0.12877143482094927
      w: 0.9916743001480647
---
transforms:
- header:
    stamp:
      sec: 1748397616
      nanosec: 67253281
    frame_id: odom
  child_frame_id: base_link
  transform:
    translation:
      x: -0.35294406541956974
      y: 0.25071209229484537
      z: 0.0
    rotation:
      x: -0.0
      y: 0.0
      z: 0.20420333900880192
      w: -0.9789284939859787
---
transforms:
- header:
    stamp:
      sec: 1748397616
      nanosec: 126079743
    frame_id: map
  child_frame_id: odom
  transform:
    translation:
      x: 0.017790903091778526
      y: -0.31672203003112265
      z: 0.0
    rotation:
      x: -0.0
      y: -0.0
      z: 0.12877143482094927
      w: 0.9916743001480647
---
transforms:
- header:
    stamp:
      sec: 1748397616
      nanosec: 90617266
    frame_id: odom
  child_frame_id: base_link
  transform:
    translation:
      x: -0.35294406541956974
      y: 0.25071209229484537
      z: 0.0
    rotation:
      x: -0.0
      y: 0.0
      z: 0.20420333900880192
      w: -0.9789284939859787
---
transforms:
- header:
    stamp:
      sec: 1748397616
      nanosec: 90566765
    frame_id: base_link
  child_frame_id: wheel_left_link
  transform:
    translation:
      x: 0.0
      y: 0.147
      z: 0.0
    rotation:
      x: 0.0
      y: 0.9571968061484625
      z: 0.0
      w: 0.2894378591324616
- header:
    stamp:
      sec: 1748397616
      nanosec: 90566765
    frame_id: base_link
  child_frame_id: wheel_right_link
  transform:
    translation:
      x: 0.0
      y: -0.147
      z: 0.0
    rotation:
      x: 0.0
      y: -0.009617286146654877
      z: 0.0
      w: 0.9999537528341866
---
transforms:
- header:
    stamp:
      sec: 1748397616
      nanosec: 126079743
    frame_id: map
  child_frame_id: odom
  transform:
    translation:
      x: 0.017790903091778526
      y: -0.31672203003112265
      z: 0.0
    rotation:
      x: -0.0
      y: -0.0
      z: 0.12877143482094927
      w: 0.9916743001480647
---
transforms:
- header:
    stamp:
      sec: 1748397616
      nanosec: 145173847
    frame_id: base_link
  child_frame_id: wheel_left_link
  transform:
    translation:
      x: 0.0
      y: 0.147
      z: 0.0
    rotation:
      x: 0.0
      y: 0.9571968061484625
      z: 0.0
      w: 0.2894378591324616
- header:
    stamp:
      sec: 1748397616
      nanosec: 145173847
    frame_id: base_link
  child_frame_id: wheel_right_link
  transform:
    translation:
      x: 0.0
      y: -0.147
      z: 0.0
    rotation:
      x: 0.0
      y: -0.009617286146654877
      z: 0.0
      w: 0.9999537528341866
---
transforms:
- header:
    stamp:
      sec: 1748397616
      nanosec: 126079743
    frame_id: map
  child_frame_id: odom
  transform:
    translation:
      x: 0.017790903091778526
      y: -0.31672203003112265
      z: 0.0
    rotation:
      x: -0.0
      y: -0.0
      z: 0.12877143482094927
      w: 0.9916743001480647
---
transforms:
- header:
    stamp:
      sec: 1748397616
      nanosec: 165523360
    frame_id: odom
  child_frame_id: base_link
  transform:
    translation:
      x: -0.35294406541956974
      y: 0.25071209229484537
      z: 0.0
    rotation:
      x: -0.0
      y: 0.0
      z: 0.20420333900880192
      w: -0.9789284939859787
---
transforms:
- header:
    stamp:
      sec: 1748397616
      nanosec: 126079743
    frame_id: map
  child_frame_id: odom
  transform:
    translation:
      x: 0.017790903091778526
      y: -0.31672203003112265
      z: 0.0
    rotation:
      x: -0.0
      y: -0.0
      z: 0.12877143482094927
      w: 0.9916743001480647
---
transforms:
- header:
    stamp:
      sec: 1748397616
      nanosec: 176885419
    frame_id: odom
  child_frame_id: base_link
  transform:
    translation:
      x: -0.35294406541956974
      y: 0.25071209229484537
      z: 0.0
    rotation:
      x: -0.0
      y: 0.0
      z: 0.20420333900880192
      w: -0.9789284939859787
---
transforms:
- header:
    stamp:
      sec: 1748397616
      nanosec: 245407718
    frame_id: map
  child_frame_id: odom
  transform:
    translation:
      x: 0.017790903091778526
      y: -0.31672203003112265
      z: 0.0
    rotation:
      x: -0.0
      y: -0.0
      z: 0.12877143482094927
      w: 0.9916743001480647
---
transforms:
- header:
    stamp:
      sec: 1748397616
      nanosec: 195211017
    frame_id: base_link
  child_frame_id: wheel_left_link
  transform:
    translation:
      x: 0.0
      y: 0.147
      z: 0.0
    rotation:
      x: 0.0
      y: 0.9571968061484625
      z: 0.0
      w: 0.2894378591324616
- header:
    stamp:
      sec: 1748397616
      nanosec: 195211017
    frame_id: base_link
  child_frame_id: wheel_right_link
  transform:
    translation:
      x: 0.0
      y: -0.147
      z: 0.0
    rotation:
      x: 0.0
      y: -0.009617286146654877
      z: 0.0
      w: 0.9999537528341866
---
transforms:
- header:
    stamp:
      sec: 1748397616
      nanosec: 205518961
    frame_id: odom
  child_frame_id: base_link
  transform:
    translation:
      x: -0.35294406541956974
      y: 0.25071209229484537
      z: 0.0
    rotation:
      x: -0.0
      y: 0.0
      z: 0.20420333900880192
      w: -0.9789284939859787
---
transforms:
- header:
    stamp:
      sec: 1748397616
      nanosec: 245407718
    frame_id: map
  child_frame_id: odom
  transform:
    translation:
      x: 0.017790903091778526
      y: -0.31672203003112265
      z: 0.0
    rotation:
      x: -0.0
      y: -0.0
      z: 0.12877143482094927
      w: 0.9916743001480647
---
transforms:
- header:
    stamp:
      sec: 1748397616
      nanosec: 225792342
    frame_id: odom
  child_frame_id: base_link
  transform:
    translation:
      x: -0.35294406541956974
      y: 0.25071209229484537
      z: 0.0
    rotation:
      x: -0.0
      y: 0.0
      z: 0.20420333900880192
      w: -0.9789284939859787
---
transforms:
- header:
    stamp:
      sec: 1748397616
      nanosec: 245407718
    frame_id: map
  child_frame_id: odom
  transform:
    translation:
      x: 0.017790903091778526
      y: -0.31672203003112265
      z: 0.0
    rotation:
      x: -0.0
      y: -0.0
      z: 0.12877143482094927
      w: 0.9916743001480647
---
transforms:
- header:
    stamp:
      sec: 1748397616
      nanosec: 237178365
    frame_id: odom
  child_frame_id: base_link
  transform:
    translation:
      x: -0.35294406541956974
      y: 0.25071209229484537
      z: 0.0
    rotation:
      x: -0.0
      y: 0.0
      z: 0.20420333900880192
      w: -0.9789284939859787
---
transforms:
- header:
    stamp:
      sec: 1748397616
      nanosec: 245566046
    frame_id: base_link
  child_frame_id: wheel_left_link
  transform:
    translation:
      x: 0.0
      y: 0.147
      z: 0.0
    rotation:
      x: 0.0
      y: 0.9571968061484625
      z: 0.0
      w: 0.2894378591324616
- header:
    stamp:
      sec: 1748397616
      nanosec: 245566046
    frame_id: base_link
  child_frame_id: wheel_right_link
  transform:
    translation:
      x: 0.0
      y: -0.147
      z: 0.0
    rotation:
      x: 0.0
      y: -0.009617286146654877
      z: 0.0
      w: 0.9999537528341866
---
transforms:
- header:
    stamp:
      sec: 1748397616
      nanosec: 245407718
    frame_id: map
  child_frame_id: odom
  transform:
    translation:
      x: 0.017790903091778526
      y: -0.31672203003112265
      z: 0.0
    rotation:
      x: -0.0
      y: -0.0
      z: 0.12877143482094927
      w: 0.9916743001480647
---
transforms:
- header:
    stamp:
      sec: 1748397616
      nanosec: 265636978
    frame_id: odom
  child_frame_id: base_link
  transform:
    translation:
      x: -0.35294406541956974
      y: 0.25071209229484537
      z: 0.0
    rotation:
      x: -0.0
      y: 0.0
      z: 0.20420333900880192
      w: -0.9789284939859787
---
transforms:
- header:
    stamp:
      sec: 1748397616
      nanosec: 245407718
    frame_id: map
  child_frame_id: odom
  transform:
    translation:
      x: 0.017790903091778526
      y: -0.31672203003112265
      z: 0.0
    rotation:
      x: -0.0
      y: -0.0
      z: 0.12877143482094927
      w: 0.9916743001480647
---
transforms:
- header:
    stamp:
      sec: 1748397616
      nanosec: 276542472
    frame_id: odom
  child_frame_id: base_link
  transform:
    translation:
      x: -0.35294406541956974
      y: 0.25071209229484537
      z: 0.0
    rotation:
      x: -0.0
      y: 0.0
      z: 0.20420333900880192
      w: -0.9789284939859787
---
transforms:
- header:
    stamp:
      sec: 1748397616
      nanosec: 245407718
    frame_id: map
  child_frame_id: odom
  transform:
    translation:
      x: 0.017790903091778526
      y: -0.31672203003112265
      z: 0.0
    rotation:
      x: -0.0
      y: -0.0
      z: 0.12877143482094927
      w: 0.9916743001480647
---
transforms:
- header:
    stamp:
      sec: 1748397616
      nanosec: 306846939
    frame_id: odom
  child_frame_id: base_link
  transform:
    translation:
      x: -0.35294406541956974
      y: 0.25071209229484537
      z: 0.0
    rotation:
      x: -0.0
      y: 0.0
      z: 0.20420333900880192
      w: -0.9789284939859787
---
transforms:
- header:
    stamp:
      sec: 1748397616
      nanosec: 306756455
    frame_id: base_link
  child_frame_id: wheel_left_link
  transform:
    translation:
      x: 0.0
      y: 0.147
      z: 0.0
    rotation:
      x: 0.0
      y: 0.9571968061484625
      z: 0.0
      w: 0.2894378591324616
- header:
    stamp:
      sec: 1748397616
      nanosec: 306756455
    frame_id: base_link
  child_frame_id: wheel_right_link
  transform:
    translation:
      x: 0.0
      y: -0.147
      z: 0.0
    rotation:
      x: 0.0
      y: -0.009617286146654877
      z: 0.0
      w: 0.9999537528341866
---
transforms:
- header:
    stamp:
      sec: 1748397616
      nanosec: 245407718
    frame_id: map
  child_frame_id: odom
  transform:
    translation:
      x: 0.017790903091778526
      y: -0.31672203003112265
      z: 0.0
    rotation:
      x: -0.0
      y: -0.0
      z: 0.12877143482094927
      w: 0.9916743001480647
---
transforms:
- header:
    stamp:
      sec: 1748397616
      nanosec: 325165629
    frame_id: odom
  child_frame_id: base_link
  transform:
    translation:
      x: -0.35294406541956974
      y: 0.25071209229484537
      z: 0.0
    rotation:
      x: -0.0
      y: 0.0
      z: 0.20420333900880192
      w: -0.9789284939859787
---
transforms:
- header:
    stamp:
      sec: 1748397616
      nanosec: 386886208
    frame_id: map
  child_frame_id: odom
  transform:
    translation:
      x: 0.017790903091778526
      y: -0.31672203003112265
      z: 0.0
    rotation:
      x: -0.0
      y: -0.0
      z: 0.12877143482094927
      w: 0.9916743001480647
---
transforms:
- header:
    stamp:
      sec: 1748397616
      nanosec: 345198116
    frame_id: odom
  child_frame_id: base_link
  transform:
    translation:
      x: -0.35294406541956974
      y: 0.25071209229484537
      z: 0.0
    rotation:
      x: -0.0
      y: 0.0
      z: 0.20420333900880192
      w: -0.9789284939859787
---
transforms:
- header:
    stamp:
      sec: 1748397616
      nanosec: 386886208
    frame_id: map
  child_frame_id: odom
  transform:
    translation:
      x: 0.017790903091778526
      y: -0.31672203003112265
      z: 0.0
    rotation:
      x: -0.0
      y: -0.0
      z: 0.12877143482094927
      w: 0.9916743001480647
---
transforms:
- header:
    stamp:
      sec: 1748397616
      nanosec: 365165898
    frame_id: odom
  child_frame_id: base_link
  transform:
    translation:
      x: -0.35294406541956974
      y: 0.25071209229484537
      z: 0.0
    rotation:
      x: -0.0
      y: 0.0
      z: 0.20420333900880192
      w: -0.9789284939859787
---
transforms:
- header:
    stamp:
      sec: 1748397616
      nanosec: 365149749
    frame_id: base_link
  child_frame_id: wheel_left_link
  transform:
    translation:
      x: 0.0
      y: 0.147
      z: 0.0
    rotation:
      x: 0.0
      y: 0.9571968061484625
      z: 0.0
      w: 0.2894378591324616
- header:
    stamp:
      sec: 1748397616
      nanosec: 365149749
    frame_id: base_link
  child_frame_id: wheel_right_link
  transform:
    translation:
      x: 0.0
      y: -0.147
      z: 0.0
    rotation:
      x: 0.0
      y: -0.009617286146654877
      z: 0.0
      w: 0.9999537528341866
---
transforms:
- header:
    stamp:
      sec: 1748397616
      nanosec: 386886208
    frame_id: map
  child_frame_id: odom
  transform:
    translation:
      x: 0.017790903091778526
      y: -0.31672203003112265
      z: 0.0
    rotation:
      x: -0.0
      y: -0.0
      z: 0.12877143482094927
      w: 0.9916743001480647
---
transforms:
- header:
    stamp:
      sec: 1748397616
      nanosec: 377042913
    frame_id: odom
  child_frame_id: base_link
  transform:
    translation:
      x: -0.35294406541956974
      y: 0.25071209229484537
      z: 0.0
    rotation:
      x: -0.0
      y: 0.0
      z: 0.20420333900880192
      w: -0.9789284939859787
---
transforms:
- header:
    stamp:
      sec: 1748397616
      nanosec: 386886208
    frame_id: map
  child_frame_id: odom
  transform:
    translation:
      x: 0.017790903091778526
      y: -0.31672203003112265
      z: 0.0
    rotation:
      x: -0.0
      y: -0.0
      z: 0.12877143482094927
      w: 0.9916743001480647
---
transforms:
- header:
    stamp:
      sec: 1748397616
      nanosec: 405247575
    frame_id: odom
  child_frame_id: base_link
  transform:
    translation:
      x: -0.35294406541956974
      y: 0.25071209229484537
      z: 0.0
    rotation:
      x: -0.0
      y: 0.0
      z: 0.20420333900880192
      w: -0.9789284939859787
---
transforms:
- header:
    stamp:
      sec: 1748397616
      nanosec: 386886208
    frame_id: map
  child_frame_id: odom
  transform:
    translation:
      x: 0.017790903091778526
      y: -0.31672203003112265
      z: 0.0
    rotation:
      x: -0.0
      y: -0.0
      z: 0.12877143482094927
      w: 0.9916743001480647
---
transforms:
- header:
    stamp:
      sec: 1748397616
      nanosec: 415246457
    frame_id: base_link
  child_frame_id: wheel_left_link
  transform:
    translation:
      x: 0.0
      y: 0.147
      z: 0.0
    rotation:
      x: 0.0
      y: 0.9571968061484625
      z: 0.0
      w: 0.2894378591324616
- header:
    stamp:
      sec: 1748397616
      nanosec: 415246457
    frame_id: base_link
  child_frame_id: wheel_right_link
  transform:
    translation:
      x: 0.0
      y: -0.147
      z: 0.0
    rotation:
      x: 0.0
      y: -0.009617286146654877
      z: 0.0
      w: 0.9999537528341866
---
transforms:
- header:
    stamp:
      sec: 1748397616
      nanosec: 425163023
    frame_id: odom
  child_frame_id: base_link
  transform:
    translation:
      x: -0.35294406541956974
      y: 0.25071209229484537
      z: 0.0
    rotation:
      x: -0.0
      y: 0.0
      z: 0.20420333900880192
      w: -0.9789284939859787
---
transforms:
- header:
    stamp:
      sec: 1748397616
      nanosec: 386886208
    frame_id: map
  child_frame_id: odom
  transform:
    translation:
      x: 0.017790903091778526
      y: -0.31672203003112265
      z: 0.0
    rotation:
      x: -0.0
      y: -0.0
      z: 0.12877143482094927
      w: 0.9916743001480647
---
transforms:
- header:
    stamp:
      sec: 1748397616
      nanosec: 445261566
    frame_id: odom
  child_frame_id: base_link
  transform:
    translation:
      x: -0.35294406541956974
      y: 0.25071209229484537
      z: 0.0
    rotation:
      x: -0.0
      y: 0.0
      z: 0.20420333900880192
      w: -0.9789284939859787
---
transforms:
- header:
    stamp:
      sec: 1748397616
      nanosec: 516713170
    frame_id: map
  child_frame_id: odom
  transform:
    translation:
      x: 0.017790903091778526
      y: -0.31672203003112265
      z: 0.0
    rotation:
      x: -0.0
      y: -0.0
      z: 0.12877143482094927
      w: 0.9916743001480647
---
transforms:
- header:
    stamp:
      sec: 1748397616
      nanosec: 465367814
    frame_id: odom
  child_frame_id: base_link
  transform:
    translation:
      x: -0.35294406541956974
      y: 0.25071209229484537
      z: 0.0
    rotation:
      x: -0.0
      y: 0.0
      z: 0.20420333900880192
      w: -0.9789284939859787
---
transforms:
- header:
    stamp:
      sec: 1748397616
      nanosec: 465340036
    frame_id: base_link
  child_frame_id: wheel_left_link
  transform:
    translation:
      x: 0.0
      y: 0.147
      z: 0.0
    rotation:
      x: 0.0
      y: 0.9571968061484625
      z: 0.0
      w: 0.2894378591324616
- header:
    stamp:
      sec: 1748397616
      nanosec: 465340036
    frame_id: base_link
  child_frame_id: wheel_right_link
  transform:
    translation:
      x: 0.0
      y: -0.147
      z: 0.0
    rotation:
      x: 0.0
      y: -0.009617286146654877
      z: 0.0
      w: 0.9999537528341866
---
transforms:
- header:
    stamp:
      sec: 1748397616
      nanosec: 516713170
    frame_id: map
  child_frame_id: odom
  transform:
    translation:
      x: 0.017790903091778526
      y: -0.31672203003112265
      z: 0.0
    rotation:
      x: -0.0
      y: -0.0
      z: 0.12877143482094927
      w: 0.9916743001480647
---
transforms:
- header:
    stamp:
      sec: 1748397616
      nanosec: 485437376
    frame_id: odom
  child_frame_id: base_link
  transform:
    translation:
      x: -0.35294406541956974
      y: 0.25071209229484537
      z: 0.0
    rotation:
      x: -0.0
      y: 0.0
      z: 0.20420333900880192
      w: -0.9789284939859787
---
transforms:
- header:
    stamp:
      sec: 1748397616
      nanosec: 516713170
    frame_id: map
  child_frame_id: odom
  transform:
    translation:
      x: 0.017790903091778526
      y: -0.31672203003112265
      z: 0.0
    rotation:
      x: -0.0
      y: -0.0
      z: 0.12877143482094927
      w: 0.9916743001480647
---
transforms:
- header:
    stamp:
      sec: 1748397616
      nanosec: 498033073
    frame_id: odom
  child_frame_id: base_link
  transform:
    translation:
      x: -0.35294406541956974
      y: 0.25071209229484537
      z: 0.0
    rotation:
      x: -0.0
      y: 0.0
      z: 0.20420333900880192
      w: -0.9789284939859787
---
transforms:
- header:
    stamp:
      sec: 1748397616
      nanosec: 516713170
    frame_id: map
  child_frame_id: odom
  transform:
    translation:
      x: 0.017790903091778526
      y: -0.31672203003112265
      z: 0.0
    rotation:
      x: -0.0
      y: -0.0
      z: 0.12877143482094927
      w: 0.9916743001480647
---
transforms:
- header:
    stamp:
      sec: 1748397616
      nanosec: 515424817
    frame_id: base_link
  child_frame_id: wheel_left_link
  transform:
    translation:
      x: 0.0
      y: 0.147
      z: 0.0
    rotation:
      x: 0.0
      y: 0.9571968061484625
      z: 0.0
      w: 0.2894378591324616
- header:
    stamp:
      sec: 1748397616
      nanosec: 515424817
    frame_id: base_link
  child_frame_id: wheel_right_link
  transform:
    translation:
      x: 0.0
      y: -0.147
      z: 0.0
    rotation:
      x: 0.0
      y: -0.009617286146654877
      z: 0.0
      w: 0.9999537528341866
---
transforms:
- header:
    stamp:
      sec: 1748397616
      nanosec: 525198472
    frame_id: odom
  child_frame_id: base_link
  transform:
    translation:
      x: -0.35294406541956974
      y: 0.25071209229484537
      z: 0.0
    rotation:
      x: -0.0
      y: 0.0
      z: 0.20420333900880192
      w: -0.9789284939859787
---
transforms:
- header:
    stamp:
      sec: 1748397616
      nanosec: 516713170
    frame_id: map
  child_frame_id: odom
  transform:
    translation:
      x: 0.017790903091778526
      y: -0.31672203003112265
      z: 0.0
    rotation:
      x: -0.0
      y: -0.0
      z: 0.12877143482094927
      w: 0.9916743001480647
---
transforms:
- header:
    stamp:
      sec: 1748397616
      nanosec: 545169958
    frame_id: odom
  child_frame_id: base_link
  transform:
    translation:
      x: -0.35294406541956974
      y: 0.25071209229484537
      z: 0.0
    rotation:
      x: -0.0
      y: 0.0
      z: 0.20420333900880192
      w: -0.9789284939859787
---
transforms:
- header:
    stamp:
      sec: 1748397616
      nanosec: 516713170
    frame_id: map
  child_frame_id: odom
  transform:
    translation:
      x: 0.017790903091778526
      y: -0.31672203003112265
      z: 0.0
    rotation:
      x: -0.0
      y: -0.0
      z: 0.12877143482094927
      w: 0.9916743001480647
---
transforms:
- header:
    stamp:
      sec: 1748397616
      nanosec: 565284206
    frame_id: odom
  child_frame_id: base_link
  transform:
    translation:
      x: -0.35294406541956974
      y: 0.25071209229484537
      z: 0.0
    rotation:
      x: -0.0
      y: 0.0
      z: 0.20420333900880192
      w: -0.9789284939859787
---
transforms:
- header:
    stamp:
      sec: 1748397616
      nanosec: 641915402
    frame_id: map
  child_frame_id: odom
  transform:
    translation:
      x: 0.017790903091778526
      y: -0.31672203003112265
      z: 0.0
    rotation:
      x: -0.0
      y: -0.0
      z: 0.12877143482094927
      w: 0.9916743001480647
---
transforms:
- header:
    stamp:
      sec: 1748397616
      nanosec: 575868841
    frame_id: base_link
  child_frame_id: wheel_left_link
  transform:
    translation:
      x: 0.0
      y: 0.147
      z: 0.0
    rotation:
      x: 0.0
      y: 0.9571968061484625
      z: 0.0
      w: 0.2894378591324616
- header:
    stamp:
      sec: 1748397616
      nanosec: 575868841
    frame_id: base_link
  child_frame_id: wheel_right_link
  transform:
    translation:
      x: 0.0
      y: -0.147
      z: 0.0
    rotation:
      x: 0.0
      y: -0.009617286146654877
      z: 0.0
      w: 0.9999537528341866
---
transforms:
- header:
    stamp:
      sec: 1748397616
      nanosec: 585163800
    frame_id: odom
  child_frame_id: base_link
  transform:
    translation:
      x: -0.35294406541956974
      y: 0.25071209229484537
      z: 0.0
    rotation:
      x: -0.0
      y: 0.0
      z: 0.20420333900880192
      w: -0.9789284939859787
---
transforms:
- header:
    stamp:
      sec: 1748397616
      nanosec: 641915402
    frame_id: map
  child_frame_id: odom
  transform:
    translation:
      x: 0.017790903091778526
      y: -0.31672203003112265
      z: 0.0
    rotation:
      x: -0.0
      y: -0.0
      z: 0.12877143482094927
      w: 0.9916743001480647
---
transforms:
- header:
    stamp:
      sec: 1748397616
      nanosec: 605294270
    frame_id: odom
  child_frame_id: base_link
  transform:
    translation:
      x: -0.35294406541956974
      y: 0.25071209229484537
      z: 0.0
    rotation:
      x: -0.0
      y: 0.0
      z: 0.20420333900880192
      w: -0.9789284939859787
---
transforms:
- header:
    stamp:
      sec: 1748397616
      nanosec: 641915402
    frame_id: map
  child_frame_id: odom
  transform:
    translation:
      x: 0.017790903091778526
      y: -0.31672203003112265
      z: 0.0
    rotation:
      x: -0.0
      y: -0.0
      z: 0.12877143482094927
      w: 0.9916743001480647
---
transforms:
- header:
    stamp:
      sec: 1748397616
      nanosec: 625244200
    frame_id: odom
  child_frame_id: base_link
  transform:
    translation:
      x: -0.35294406541956974
      y: 0.25071209229484537
      z: 0.0
    rotation:
      x: -0.0
      y: 0.0
      z: 0.20420333900880192
      w: -0.9789284939859787
---
transforms:
- header:
    stamp:
      sec: 1748397616
      nanosec: 641915402
    frame_id: map
  child_frame_id: odom
  transform:
    translation:
      x: 0.017790903091778526
      y: -0.31672203003112265
      z: 0.0
    rotation:
      x: -0.0
      y: -0.0
      z: 0.12877143482094927
      w: 0.9916743001480647
---
transforms:
- header:
    stamp:
      sec: 1748397616
      nanosec: 635185062
    frame_id: base_link
  child_frame_id: wheel_left_link
  transform:
    translation:
      x: 0.0
      y: 0.147
      z: 0.0
    rotation:
      x: 0.0
      y: 0.9571968061484625
      z: 0.0
      w: 0.2894378591324616
- header:
    stamp:
      sec: 1748397616
      nanosec: 635185062
    frame_id: base_link
  child_frame_id: wheel_right_link
  transform:
    translation:
      x: 0.0
      y: -0.147
      z: 0.0
    rotation:
      x: 0.0
      y: -0.009617286146654877
      z: 0.0
      w: 0.9999537528341866
---
transforms:
- header:
    stamp:
      sec: 1748397616
      nanosec: 645305150
    frame_id: odom
  child_frame_id: base_link
  transform:
    translation:
      x: -0.35294406541956974
      y: 0.25071209229484537
      z: 0.0
    rotation:
      x: -0.0
      y: 0.0
      z: 0.20420333900880192
      w: -0.9789284939859787
---
transforms:
- header:
    stamp:
      sec: 1748397616
      nanosec: 641915402
    frame_id: map
  child_frame_id: odom
  transform:
    translation:
      x: 0.017790903091778526
      y: -0.31672203003112265
      z: 0.0
    rotation:
      x: -0.0
      y: -0.0
      z: 0.12877143482094927
      w: 0.9916743001480647
---
transforms:
- header:
    stamp:
      sec: 1748397616
      nanosec: 665192208
    frame_id: odom
  child_frame_id: base_link
  transform:
    translation:
      x: -0.35294406541956974
      y: 0.25071209229484537
      z: 0.0
    rotation:
      x: -0.0
      y: 0.0
      z: 0.20420333900880192
      w: -0.9789284939859787
---
transforms:
- header:
    stamp:
      sec: 1748397616
      nanosec: 641915402
    frame_id: map
  child_frame_id: odom
  transform:
    translation:
      x: 0.017790903091778526
      y: -0.31672203003112265
      z: 0.0
    rotation:
      x: -0.0
      y: -0.0
      z: 0.12877143482094927
      w: 0.9916743001480647
---
transforms:
- header:
    stamp:
      sec: 1748397616
      nanosec: 685171212
    frame_id: odom
  child_frame_id: base_link
  transform:
    translation:
      x: -0.35294406541956974
      y: 0.25071209229484537
      z: 0.0
    rotation:
      x: -0.0
      y: 0.0
      z: 0.20420333900880192
      w: -0.9789284939859787
---
transforms:
- header:
    stamp:
      sec: 1748397616
      nanosec: 641915402
    frame_id: map
  child_frame_id: odom
  transform:
    translation:
      x: 0.017790903091778526
      y: -0.31672203003112265
      z: 0.0
    rotation:
      x: -0.0
      y: -0.0
      z: 0.12877143482094927
      w: 0.9916743001480647
---
transforms:
- header:
    stamp:
      sec: 1748397616
      nanosec: 695129926
    frame_id: base_link
  child_frame_id: wheel_left_link
  transform:
    translation:
      x: 0.0
      y: 0.147
      z: 0.0
    rotation:
      x: 0.0
      y: 0.9571968061484625
      z: 0.0
      w: 0.2894378591324616
- header:
    stamp:
      sec: 1748397616
      nanosec: 695129926
    frame_id: base_link
  child_frame_id: wheel_right_link
  transform:
    translation:
      x: 0.0
      y: -0.147
      z: 0.0
    rotation:
      x: 0.0
      y: -0.009617286146654877
      z: 0.0
      w: 0.9999537528341866
---
transforms:
- header:
    stamp:
      sec: 1748397616
      nanosec: 705174069
    frame_id: odom
  child_frame_id: base_link
  transform:
    translation:
      x: -0.35294406541956974
      y: 0.25071209229484537
      z: 0.0
    rotation:
      x: -0.0
      y: 0.0
      z: 0.20420333900880192
      w: -0.9789284939859787
---
transforms:
- header:
    stamp:
      sec: 1748397616
      nanosec: 767145875
    frame_id: map
  child_frame_id: odom
  transform:
    translation:
      x: 0.017790903091778526
      y: -0.31672203003112265
      z: 0.0
    rotation:
      x: -0.0
      y: -0.0
      z: 0.12877143482094927
      w: 0.9916743001480647
---
transforms:
- header:
    stamp:
      sec: 1748397616
      nanosec: 725427727
    frame_id: odom
  child_frame_id: base_link
  transform:
    translation:
      x: -0.35294406541956974
      y: 0.25071209229484537
      z: 0.0
    rotation:
      x: -0.0
      y: 0.0
      z: 0.20420333900880192
      w: -0.9789284939859787
---
transforms:
- header:
    stamp:
      sec: 1748397616
      nanosec: 767145875
    frame_id: map
  child_frame_id: odom
  transform:
    translation:
      x: 0.017790903091778526
      y: -0.31672203003112265
      z: 0.0
    rotation:
      x: -0.0
      y: -0.0
      z: 0.12877143482094927
      w: 0.9916743001480647
---
transforms:
- header:
    stamp:
      sec: 1748397616
      nanosec: 746266453
    frame_id: odom
  child_frame_id: base_link
  transform:
    translation:
      x: -0.35294406541956974
      y: 0.25071209229484537
      z: 0.0
    rotation:
      x: -0.0
      y: 0.0
      z: 0.20420333900880192
      w: -0.9789284939859787
---
transforms:
- header:
    stamp:
      sec: 1748397616
      nanosec: 746242045
    frame_id: base_link
  child_frame_id: wheel_left_link
  transform:
    translation:
      x: 0.0
      y: 0.147
      z: 0.0
    rotation:
      x: 0.0
      y: 0.9571968061484625
      z: 0.0
      w: 0.2894378591324616
- header:
    stamp:
      sec: 1748397616
      nanosec: 746242045
    frame_id: base_link
  child_frame_id: wheel_right_link
  transform:
    translation:
      x: 0.0
      y: -0.147
      z: 0.0
    rotation:
      x: 0.0
      y: -0.009617286146654877
      z: 0.0
      w: 0.9999537528341866
---
transforms:
- header:
    stamp:
      sec: 1748397616
      nanosec: 767145875
    frame_id: map
  child_frame_id: odom
  transform:
    translation:
      x: 0.017790903091778526
      y: -0.31672203003112265
      z: 0.0
    rotation:
      x: -0.0
      y: -0.0
      z: 0.12877143482094927
      w: 0.9916743001480647
---
transforms:
- header:
    stamp:
      sec: 1748397616
      nanosec: 759049673
    frame_id: odom
  child_frame_id: base_link
  transform:
    translation:
      x: -0.35294406541956974
      y: 0.25071209229484537
      z: 0.0
    rotation:
      x: -0.0
      y: 0.0
      z: 0.20420333900880192
      w: -0.9789284939859787
---
transforms:
- header:
    stamp:
      sec: 1748397616
      nanosec: 767145875
    frame_id: map
  child_frame_id: odom
  transform:
    translation:
      x: 0.017790903091778526
      y: -0.31672203003112265
      z: 0.0
    rotation:
      x: -0.0
      y: -0.0
      z: 0.12877143482094927
      w: 0.9916743001480647
---
transforms:
- header:
    stamp:
      sec: 1748397616
      nanosec: 786687675
    frame_id: odom
  child_frame_id: base_link
  transform:
    translation:
      x: -0.35294406541956974
      y: 0.25071209229484537
      z: 0.0
    rotation:
      x: -0.0
      y: 0.0
      z: 0.20420333900880192
      w: -0.9789284939859787
---
transforms:
- header:
    stamp:
      sec: 1748397616
      nanosec: 767145875
    frame_id: map
  child_frame_id: odom
  transform:
    translation:
      x: 0.017790903091778526
      y: -0.31672203003112265
      z: 0.0
    rotation:
      x: -0.0
      y: -0.0
      z: 0.12877143482094927
      w: 0.9916743001480647
---
transforms:
- header:
    stamp:
      sec: 1748397616
      nanosec: 806029721
    frame_id: odom
  child_frame_id: base_link
  transform:
    translation:
      x: -0.35294406541956974
      y: 0.25071209229484537
      z: 0.0
    rotation:
      x: -0.0
      y: 0.0
      z: 0.20420333900880192
      w: -0.9789284939859787
---
transforms:
- header:
    stamp:
      sec: 1748397616
      nanosec: 805738956
    frame_id: base_link
  child_frame_id: wheel_left_link
  transform:
    translation:
      x: 0.0
      y: 0.147
      z: 0.0
    rotation:
      x: 0.0
      y: 0.9571968061484625
      z: 0.0
      w: 0.2894378591324616
- header:
    stamp:
      sec: 1748397616
      nanosec: 805738956
    frame_id: base_link
  child_frame_id: wheel_right_link
  transform:
    translation:
      x: 0.0
      y: -0.147
      z: 0.0
    rotation:
      x: 0.0
      y: -0.009617286146654877
      z: 0.0
      w: 0.9999537528341866
---
transforms:
- header:
    stamp:
      sec: 1748397616
      nanosec: 767145875
    frame_id: map
  child_frame_id: odom
  transform:
    translation:
      x: 0.017790903091778526
      y: -0.31672203003112265
      z: 0.0
    rotation:
      x: -0.0
      y: -0.0
      z: 0.12877143482094927
      w: 0.9916743001480647
---
transforms:
- header:
    stamp:
      sec: 1748397616
      nanosec: 825483510
    frame_id: odom
  child_frame_id: base_link
  transform:
    translation:
      x: -0.35294406541956974
      y: 0.25071209229484537
      z: 0.0
    rotation:
      x: -0.0
      y: 0.0
      z: 0.20420333900880192
      w: -0.9789284939859787
---
transforms:
- header:
    stamp:
      sec: 1748397616
      nanosec: 767145875
    frame_id: map
  child_frame_id: odom
  transform:
    translation:
      x: 0.017790903091778526
      y: -0.31672203003112265
      z: 0.0
    rotation:
      x: -0.0
      y: -0.0
      z: 0.12877143482094927
      w: 0.9916743001480647
---
transforms:
- header:
    stamp:
      sec: 1748397616
      nanosec: 846085843
    frame_id: odom
  child_frame_id: base_link
  transform:
    translation:
      x: -0.35294406541956974
      y: 0.25071209229484537
      z: 0.0
    rotation:
      x: -0.0
      y: 0.0
      z: 0.20420333900880192
      w: -0.9789284939859787
---
transforms:
- header:
    stamp:
      sec: 1748397616
      nanosec: 900484394
    frame_id: map
  child_frame_id: odom
  transform:
    translation:
      x: 0.017790903091778526
      y: -0.31672203003112265
      z: 0.0
    rotation:
      x: -0.0
      y: -0.0
      z: 0.12877143482094927
      w: 0.9916743001480647
---
transforms:
- header:
    stamp:
      sec: 1748397616
      nanosec: 866024735
    frame_id: odom
  child_frame_id: base_link
  transform:
    translation:
      x: -0.35294406541956974
      y: 0.25071209229484537
      z: 0.0
    rotation:
      x: -0.0
      y: 0.0
      z: 0.20420333900880192
      w: -0.9789284939859787
---
transforms:
- header:
    stamp:
      sec: 1748397616
      nanosec: 865830379
    frame_id: base_link
  child_frame_id: wheel_left_link
  transform:
    translation:
      x: 0.0
      y: 0.147
      z: 0.0
    rotation:
      x: 0.0
      y: 0.9571968061484625
      z: 0.0
      w: 0.2894378591324616
- header:
    stamp:
      sec: 1748397616
      nanosec: 865830379
    frame_id: base_link
  child_frame_id: wheel_right_link
  transform:
    translation:
      x: 0.0
      y: -0.147
      z: 0.0
    rotation:
      x: 0.0
      y: -0.009617286146654877
      z: 0.0
      w: 0.9999537528341866
---
transforms:
- header:
    stamp:
      sec: 1748397616
      nanosec: 900484394
    frame_id: map
  child_frame_id: odom
  transform:
    translation:
      x: 0.017790903091778526
      y: -0.31672203003112265
      z: 0.0
    rotation:
      x: -0.0
      y: -0.0
      z: 0.12877143482094927
      w: 0.9916743001480647
---
transforms:
- header:
    stamp:
      sec: 1748397616
      nanosec: 876467015
    frame_id: odom
  child_frame_id: base_link
  transform:
    translation:
      x: -0.35294406541956974
      y: 0.25071209229484537
      z: 0.0
    rotation:
      x: -0.0
      y: 0.0
      z: 0.20420333900880192
      w: -0.9789284939859787
---
transforms:
- header:
    stamp:
      sec: 1748397616
      nanosec: 900484394
    frame_id: map
  child_frame_id: odom
  transform:
    translation:
      x: 0.017790903091778526
      y: -0.31672203003112265
      z: 0.0
    rotation:
      x: -0.0
      y: -0.0
      z: 0.12877143482094927
      w: 0.9916743001480647
---
transforms:
- header:
    stamp:
      sec: 1748397616
      nanosec: 905790609
    frame_id: odom
  child_frame_id: base_link
  transform:
    translation:
      x: -0.35294406541956974
      y: 0.25071209229484537
      z: 0.0
    rotation:
      x: -0.0
      y: 0.0
      z: 0.20420333900880192
      w: -0.9789284939859787
---
transforms:
- header:
    stamp:
      sec: 1748397616
      nanosec: 900484394
    frame_id: map
  child_frame_id: odom
  transform:
    translation:
      x: 0.017790903091778526
      y: -0.31672203003112265
      z: 0.0
    rotation:
      x: -0.0
      y: -0.0
      z: 0.12877143482094927
      w: 0.9916743001480647
---
transforms:
- header:
    stamp:
      sec: 1748397616
      nanosec: 925723464
    frame_id: odom
  child_frame_id: base_link
  transform:
    translation:
      x: -0.35294406541956974
      y: 0.25071209229484537
      z: 0.0
    rotation:
      x: -0.0
      y: 0.0
      z: 0.20420333900880192
      w: -0.9789284939859787
---
transforms:
- header:
    stamp:
      sec: 1748397616
      nanosec: 925702186
    frame_id: base_link
  child_frame_id: wheel_left_link
  transform:
    translation:
      x: 0.0
      y: 0.147
      z: 0.0
    rotation:
      x: 0.0
      y: 0.9571968061484625
      z: 0.0
      w: 0.2894378591324616
- header:
    stamp:
      sec: 1748397616
      nanosec: 925702186
    frame_id: base_link
  child_frame_id: wheel_right_link
  transform:
    translation:
      x: 0.0
      y: -0.147
      z: 0.0
    rotation:
      x: 0.0
      y: -0.009617286146654877
      z: 0.0
      w: 0.9999537528341866
---
transforms:
- header:
    stamp:
      sec: 1748397616
      nanosec: 900484394
    frame_id: map
  child_frame_id: odom
  transform:
    translation:
      x: 0.017790903091778526
      y: -0.31672203003112265
      z: 0.0
    rotation:
      x: -0.0
      y: -0.0
      z: 0.12877143482094927
      w: 0.9916743001480647
---
transforms:
- header:
    stamp:
      sec: 1748397616
      nanosec: 945277682
    frame_id: odom
  child_frame_id: base_link
  transform:
    translation:
      x: -0.35294406541956974
      y: 0.25071209229484537
      z: 0.0
    rotation:
      x: -0.0
      y: 0.0
      z: 0.20420333900880192
      w: -0.9789284939859787
---
transforms:
- header:
    stamp:
      sec: 1748397616
      nanosec: 900484394
    frame_id: map
  child_frame_id: odom
  transform:
    translation:
      x: 0.017790903091778526
      y: -0.31672203003112265
      z: 0.0
    rotation:
      x: -0.0
      y: -0.0
      z: 0.12877143482094927
      w: 0.9916743001480647
---
transforms:
- header:
    stamp:
      sec: 1748397616
      nanosec: 965231685
    frame_id: odom
  child_frame_id: base_link
  transform:
    translation:
      x: -0.35294406541956974
      y: 0.25071209229484537
      z: 0.0
    rotation:
      x: -0.0
      y: 0.0
      z: 0.20420333900880192
      w: -0.9789284939859787
---
transforms:
- header:
    stamp:
      sec: 1748397617
      nanosec: 40153493
    frame_id: map
  child_frame_id: odom
  transform:
    translation:
      x: 0.017790903091778526
      y: -0.31672203003112265
      z: 0.0
    rotation:
      x: -0.0
      y: -0.0
      z: 0.12877143482094927
      w: 0.9916743001480647
---
transforms:
- header:
    stamp:
      sec: 1748397616
      nanosec: 985200985
    frame_id: odom
  child_frame_id: base_link
  transform:
    translation:
      x: -0.35294406541956974
      y: 0.25071209229484537
      z: 0.0
    rotation:
      x: -0.0
      y: 0.0
      z: 0.20420333900880192
      w: -0.9789284939859787
---
transforms:
- header:
    stamp:
      sec: 1748397616
      nanosec: 985175096
    frame_id: base_link
  child_frame_id: wheel_left_link
  transform:
    translation:
      x: 0.0
      y: 0.147
      z: 0.0
    rotation:
      x: 0.0
      y: 0.9571968061484625
      z: 0.0
      w: 0.2894378591324616
- header:
    stamp:
      sec: 1748397616
      nanosec: 985175096
    frame_id: base_link
  child_frame_id: wheel_right_link
  transform:
    translation:
      x: 0.0
      y: -0.147
      z: 0.0
    rotation:
      x: 0.0
      y: -0.009617286146654877
      z: 0.0
      w: 0.9999537528341866
---
transforms:
- header:
    stamp:
      sec: 1748397617
      nanosec: 40153493
    frame_id: map
  child_frame_id: odom
  transform:
    translation:
      x: 0.017790903091778526
      y: -0.31672203003112265
      z: 0.0
    rotation:
      x: -0.0
      y: -0.0
      z: 0.12877143482094927
      w: 0.9916743001480647
---
transforms:
- header:
    stamp:
      sec: 1748397617
      nanosec: 5198045
    frame_id: odom
  child_frame_id: base_link
  transform:
    translation:
      x: -0.35294406541956974
      y: 0.25071209229484537
      z: 0.0
    rotation:
      x: -0.0
      y: 0.0
      z: 0.20420333900880192
      w: -0.9789284939859787
---
transforms:
- header:
    stamp:
      sec: 1748397617
      nanosec: 40153493
    frame_id: map
  child_frame_id: odom
  transform:
    translation:
      x: 0.017790903091778526
      y: -0.31672203003112265
      z: 0.0
    rotation:
      x: -0.0
      y: -0.0
      z: 0.12877143482094927
      w: 0.9916743001480647
---
transforms:
- header:
    stamp:
      sec: 1748397617
      nanosec: 25185198
    frame_id: odom
  child_frame_id: base_link
  transform:
    translation:
      x: -0.35294406541956974
      y: 0.25071209229484537
      z: 0.0
    rotation:
      x: -0.0
      y: 0.0
      z: 0.20420333900880192
      w: -0.9789284939859787
---
transforms:
- header:
    stamp:
      sec: 1748397617
      nanosec: 40153493
    frame_id: map
  child_frame_id: odom
  transform:
    translation:
      x: 0.017790903091778526
      y: -0.31672203003112265
      z: 0.0
    rotation:
      x: -0.0
      y: -0.0
      z: 0.12877143482094927
      w: 0.9916743001480647
---
transforms:
- header:
    stamp:
      sec: 1748397617
      nanosec: 35332935
    frame_id: base_link
  child_frame_id: wheel_left_link
  transform:
    translation:
      x: 0.0
      y: 0.147
      z: 0.0
    rotation:
      x: 0.0
      y: 0.9571968061484625
      z: 0.0
      w: 0.2894378591324616
- header:
    stamp:
      sec: 1748397617
      nanosec: 35332935
    frame_id: base_link
  child_frame_id: wheel_right_link
  transform:
    translation:
      x: 0.0
      y: -0.147
      z: 0.0
    rotation:
      x: 0.0
      y: -0.009617286146654877
      z: 0.0
      w: 0.9999537528341866
---
transforms:
- header:
    stamp:
      sec: 1748397617
      nanosec: 45226037
    frame_id: odom
  child_frame_id: base_link
  transform:
    translation:
      x: -0.35294406541956974
      y: 0.25071209229484537
      z: 0.0
    rotation:
      x: -0.0
      y: 0.0
      z: 0.20420333900880192
      w: -0.9789284939859787
---
transforms:
- header:
    stamp:
      sec: 1748397617
      nanosec: 40153493
    frame_id: map
  child_frame_id: odom
  transform:
    translation:
      x: 0.017790903091778526
      y: -0.31672203003112265
      z: 0.0
    rotation:
      x: -0.0
      y: -0.0
      z: 0.12877143482094927
      w: 0.9916743001480647
---
transforms:
- header:
    stamp:
      sec: 1748397617
      nanosec: 65235709
    frame_id: odom
  child_frame_id: base_link
  transform:
    translation:
      x: -0.35294406541956974
      y: 0.25071209229484537
      z: 0.0
    rotation:
      x: -0.0
      y: 0.0
      z: 0.20420333900880192
      w: -0.9789284939859787
---
transforms:
- header:
    stamp:
      sec: 1748397617
      nanosec: 40153493
    frame_id: map
  child_frame_id: odom
  transform:
    translation:
      x: 0.017790903091778526
      y: -0.31672203003112265
      z: 0.0
    rotation:
      x: -0.0
      y: -0.0
      z: 0.12877143482094927
      w: 0.9916743001480647
---
transforms:
- header:
    stamp:
      sec: 1748397617
      nanosec: 85745854
    frame_id: odom
  child_frame_id: base_link
  transform:
    translation:
      x: -0.35294406541956974
      y: 0.25071209229484537
      z: 0.0
    rotation:
      x: -0.0
      y: 0.0
      z: 0.20420333900880192
      w: -0.9789284939859787
---
transforms:
- header:
    stamp:
      sec: 1748397617
      nanosec: 85698150
    frame_id: base_link
  child_frame_id: wheel_left_link
  transform:
    translation:
      x: 0.0
      y: 0.147
      z: 0.0
    rotation:
      x: 0.0
      y: 0.9571968061484625
      z: 0.0
      w: 0.2894378591324616
- header:
    stamp:
      sec: 1748397617
      nanosec: 85698150
    frame_id: base_link
  child_frame_id: wheel_right_link
  transform:
    translation:
      x: 0.0
      y: -0.147
      z: 0.0
    rotation:
      x: 0.0
      y: -0.009617286146654877
      z: 0.0
      w: 0.9999537528341866
---
transforms:
- header:
    stamp:
      sec: 1748397617
      nanosec: 40153493
    frame_id: map
  child_frame_id: odom
  transform:
    translation:
      x: 0.017790903091778526
      y: -0.31672203003112265
      z: 0.0
    rotation:
      x: -0.0
      y: -0.0
      z: 0.12877143482094927
      w: 0.9916743001480647
---
transforms:
- header:
    stamp:
      sec: 1748397617
      nanosec: 105719248
    frame_id: odom
  child_frame_id: base_link
  transform:
    translation:
      x: -0.35294406541956974
      y: 0.25071209229484537
      z: 0.0
    rotation:
      x: -0.0
      y: 0.0
      z: 0.20420333900880192
      w: -0.9789284939859787
---
transforms:
- header:
    stamp:
      sec: 1748397617
      nanosec: 160421248
    frame_id: map
  child_frame_id: odom
  transform:
    translation:
      x: 0.017790903091778526
      y: -0.31672203003112265
      z: 0.0
    rotation:
      x: -0.0
      y: -0.0
      z: 0.12877143482094927
      w: 0.9916743001480647
---
transforms:
- header:
    stamp:
      sec: 1748397617
      nanosec: 126053574
    frame_id: odom
  child_frame_id: base_link
  transform:
    translation:
      x: -0.35294406541956974
      y: 0.25071209229484537
      z: 0.0
    rotation:
      x: -0.0
      y: 0.0
      z: 0.20420333900880192
      w: -0.9789284939859787
---
transforms:
- header:
    stamp:
      sec: 1748397617
      nanosec: 160421248
    frame_id: map
  child_frame_id: odom
  transform:
    translation:
      x: 0.017790903091778526
      y: -0.31672203003112265
      z: 0.0
    rotation:
      x: -0.0
      y: -0.0
      z: 0.12877143482094927
      w: 0.9916743001480647
---
transforms:
- header:
    stamp:
      sec: 1748397617
      nanosec: 145416658
    frame_id: odom
  child_frame_id: base_link
  transform:
    translation:
      x: -0.35294406541956974
      y: 0.25071209229484537
      z: 0.0
    rotation:
      x: -0.0
      y: 0.0
      z: 0.20420333900880192
      w: -0.9789284939859787
---
transforms:
- header:
    stamp:
      sec: 1748397617
      nanosec: 145270748
    frame_id: base_link
  child_frame_id: wheel_left_link
  transform:
    translation:
      x: 0.0
      y: 0.147
      z: 0.0
    rotation:
      x: 0.0
      y: 0.9571968061484625
      z: 0.0
      w: 0.2894378591324616
- header:
    stamp:
      sec: 1748397617
      nanosec: 145270748
    frame_id: base_link
  child_frame_id: wheel_right_link
  transform:
    translation:
      x: 0.0
      y: -0.147
      z: 0.0
    rotation:
      x: 0.0
      y: -0.009617286146654877
      z: 0.0
      w: 0.9999537528341866
---
transforms:
- header:
    stamp:
      sec: 1748397617
      nanosec: 160421248
    frame_id: map
  child_frame_id: odom
  transform:
    translation:
      x: 0.017790903091778526
      y: -0.31672203003112265
      z: 0.0
    rotation:
      x: -0.0
      y: -0.0
      z: 0.12877143482094927
      w: 0.9916743001480647
---
transforms:
- header:
    stamp:
      sec: 1748397617
      nanosec: 165159620
    frame_id: odom
  child_frame_id: base_link
  transform:
    translation:
      x: -0.35294406541956974
      y: 0.25071209229484537
      z: 0.0
    rotation:
      x: -0.0
      y: 0.0
      z: 0.20420333900880192
      w: -0.9789284939859787
---
transforms:
- header:
    stamp:
      sec: 1748397617
      nanosec: 160421248
    frame_id: map
  child_frame_id: odom
  transform:
    translation:
      x: 0.017790903091778526
      y: -0.31672203003112265
      z: 0.0
    rotation:
      x: -0.0
      y: -0.0
      z: 0.12877143482094927
      w: 0.9916743001480647
---
transforms:
- header:
    stamp:
      sec: 1748397617
      nanosec: 185159199
    frame_id: odom
  child_frame_id: base_link
  transform:
    translation:
      x: -0.35294406541956974
      y: 0.25071209229484537
      z: 0.0
    rotation:
      x: -0.0
      y: 0.0
      z: 0.20420333900880192
      w: -0.9789284939859787
---
transforms:
- header:
    stamp:
      sec: 1748397617
      nanosec: 160421248
    frame_id: map
  child_frame_id: odom
  transform:
    translation:
      x: 0.017790903091778526
      y: -0.31672203003112265
      z: 0.0
    rotation:
      x: -0.0
      y: -0.0
      z: 0.12877143482094927
      w: 0.9916743001480647
---
transforms:
- header:
    stamp:
      sec: 1748397617
      nanosec: 205201483
    frame_id: odom
  child_frame_id: base_link
  transform:
    translation:
      x: -0.35294406541956974
      y: 0.25071209229484537
      z: 0.0
    rotation:
      x: -0.0
      y: 0.0
      z: 0.20420333900880192
      w: -0.9789284939859787
---
transforms:
- header:
    stamp:
      sec: 1748397617
      nanosec: 205172056
    frame_id: base_link
  child_frame_id: wheel_left_link
  transform:
    translation:
      x: 0.0
      y: 0.147
      z: 0.0
    rotation:
      x: 0.0
      y: 0.9571968061484625
      z: 0.0
      w: 0.2894378591324616
- header:
    stamp:
      sec: 1748397617
      nanosec: 205172056
    frame_id: base_link
  child_frame_id: wheel_right_link
  transform:
    translation:
      x: 0.0
      y: -0.147
      z: 0.0
    rotation:
      x: 0.0
      y: -0.009617286146654877
      z: 0.0
      w: 0.9999537528341866
---
transforms:
- header:
    stamp:
      sec: 1748397617
      nanosec: 160421248
    frame_id: map
  child_frame_id: odom
  transform:
    translation:
      x: 0.017790903091778526
      y: -0.31672203003112265
      z: 0.0
    rotation:
      x: -0.0
      y: -0.0
      z: 0.12877143482094927
      w: 0.9916743001480647
---
transforms:
- header:
    stamp:
      sec: 1748397617
      nanosec: 225324787
    frame_id: odom
  child_frame_id: base_link
  transform:
    translation:
      x: -0.35294406541956974
      y: 0.25071209229484537
      z: 0.0
    rotation:
      x: -0.0
      y: 0.0
      z: 0.20420333900880192
      w: -0.9789284939859787
---
transforms:
- header:
    stamp:
      sec: 1748397617
      nanosec: 294327039
    frame_id: map
  child_frame_id: odom
  transform:
    translation:
      x: 0.017790903091778526
      y: -0.31672203003112265
      z: 0.0
    rotation:
      x: -0.0
      y: -0.0
      z: 0.12877143482094927
      w: 0.9916743001480647
---
transforms:
- header:
    stamp:
      sec: 1748397617
      nanosec: 245193344
    frame_id: odom
  child_frame_id: base_link
  transform:
    translation:
      x: -0.35294406541956974
      y: 0.25071209229484537
      z: 0.0
    rotation:
      x: -0.0
      y: 0.0
      z: 0.20420333900880192
      w: -0.9789284939859787
---
transforms:
- header:
    stamp:
      sec: 1748397617
      nanosec: 294327039
    frame_id: map
  child_frame_id: odom
  transform:
    translation:
      x: 0.017790903091778526
      y: -0.31672203003112265
      z: 0.0
    rotation:
      x: -0.0
      y: -0.0
      z: 0.12877143482094927
      w: 0.9916743001480647
---
transforms:
- header:
    stamp:
      sec: 1748397617
      nanosec: 257161102
    frame_id: odom
  child_frame_id: base_link
  transform:
    translation:
      x: -0.35294406541956974
      y: 0.25071209229484537
      z: 0.0
    rotation:
      x: -0.0
      y: 0.0
      z: 0.20420333900880192
      w: -0.9789284939859787
---
transforms:
- header:
    stamp:
